City_ID,City,Lat,Lng,Max Temp,Humidity,Cloudiness,Wind Speed,Country,Date
0,dingzhou,38.5131,114.9956,48.31,65,100,5.82,CN,1635205439
1,rikitea,-23.1203,-134.9692,75.45,72,69,18.92,PF,1635205439
2,yellowknife,62.456,-114.3525,42.42,94,90,1.99,CA,1635205439
3,manado,1.487,124.8455,83.17,83,20,1.14,ID,1635205440
4,kaspiysk,42.8816,47.6392,44.78,81,90,11.01,RU,1635205440
5,schermbeck,51.6833,6.8667,52.97,94,69,9.33,DE,1635205179
6,lebu,-37.6167,-73.65,52.38,93,6,13.33,CL,1635205308
7,joshimath,30.5667,79.5667,48.83,31,0,6.87,IN,1635205441
8,lompoc,34.6391,-120.4579,66.42,75,40,12.66,US,1635205386
9,bluff,-46.6,168.3333,54.79,87,79,8.99,NZ,1635205442
10,ostrovnoy,68.0531,39.5131,20.91,93,71,6.17,RU,1635205443
11,saint-philippe,-21.3585,55.7679,71.15,81,41,13.02,RE,1635205242
12,wokha,26.1,94.2667,50.5,92,1,3.42,IN,1635205444
13,manono,-7.3,27.4167,66.4,93,92,1.7,CD,1635205444
14,barrow,71.2906,-156.7887,26.62,80,90,13.8,US,1635205368
15,chuy,-33.6971,-53.4616,60.55,76,0,7.4,UY,1635205270
16,arona,28.0996,-16.681,68.76,68,40,11.5,ES,1635205445
17,saint george,37.1041,-113.5841,79.27,28,1,8.01,US,1635205229
18,saint-augustin,51.226,-58.6502,37.71,68,42,7.99,CA,1635205428
19,tuktoyaktuk,69.4541,-133.0374,30.2,100,90,5.75,CA,1635205258
20,hobart,-42.8794,147.3294,57.02,61,75,1.01,AU,1635205194
21,snezhnogorsk,69.1933,33.2531,22.78,91,100,1.61,RU,1635205446
22,jamestown,42.097,-79.2353,58.32,91,75,3.0,US,1635205226
23,albany,42.6001,-73.9662,57.74,91,100,3.85,US,1635205177
24,punta arenas,-53.15,-70.9167,41.11,70,40,9.22,CL,1635205229
25,yulara,-25.2406,130.9889,80.44,36,1,8.05,AU,1635205448
26,hithadhoo,-0.6,73.0833,82.96,69,82,16.49,MV,1635205448
27,malartic,48.1335,-78.1328,37.22,80,77,7.23,CA,1635205448
28,bathsheba,13.2167,-59.5167,83.01,74,40,21.85,BB,1635205278
29,tahoua,14.8888,5.2692,84.61,14,40,8.23,NE,1635205191
30,hilo,19.7297,-155.09,88.29,76,40,12.66,US,1635205301
31,lubango,-14.9172,13.4925,58.26,46,16,2.42,AO,1635205450
32,cherskiy,68.75,161.3,-10.21,95,99,2.51,RU,1635205450
33,busselton,-33.65,115.3333,48.04,72,97,1.59,AU,1635205242
34,jumla,29.2747,82.1838,42.73,82,4,3.98,NP,1635205451
35,mahebourg,-20.4081,57.7,72.25,83,40,12.66,MU,1635205452
36,paris,48.8534,2.3488,53.11,95,40,1.01,FR,1635205417
37,port alfred,-33.5906,26.891,63.91,82,29,14.72,ZA,1635205223
38,barra,-11.0894,-43.1417,82.71,61,68,3.85,BR,1635205453
39,seoul,37.5683,126.9778,45.97,93,40,2.3,KR,1635205436
40,mataura,-46.1927,168.8643,68.32,60,88,0.83,NZ,1635205453
41,george town,5.4112,100.3354,79.95,92,40,3.0,MY,1635205404
42,itoman,26.1247,127.6694,75.22,62,20,12.66,JP,1635205454
43,georgetown,5.4112,100.3354,79.95,92,40,3.0,MY,1635205404
44,cape town,-33.9258,18.4232,63.1,64,0,3.0,ZA,1635205365
45,fortuna,40.5982,-124.1573,61.93,65,90,3.0,US,1635205455
46,prestea,5.4327,-2.1428,73.71,99,91,2.46,GH,1635205290
47,kapaa,22.0752,-159.319,84.18,82,90,4.0,US,1635205456
48,guerrero negro,27.9769,-114.0611,68.56,70,14,17.0,MX,1635205200
49,kamenka,51.3223,42.7678,27.73,74,17,4.83,RU,1635205457
50,dauphin,51.1494,-100.0502,46.54,61,1,14.97,CA,1635205458
51,qaanaaq,77.484,-69.3632,3.22,62,68,15.1,GL,1635205217
52,puerto quijarro,-17.7833,-57.7667,77.9,48,85,2.26,BO,1635205458
53,nagothana,18.5333,73.1333,78.82,76,10,3.62,IN,1635205459
54,ushuaia,-54.8,-68.3,35.26,87,40,23.02,AR,1635205384
55,carnarvon,-24.8667,113.6333,66.27,63,75,16.11,AU,1635205246
56,dikson,73.5069,80.5464,13.77,83,100,16.35,RU,1635205248
57,atuona,-9.8,-139.0333,78.12,73,27,16.37,PF,1635205229
58,katobu,-4.9408,122.5276,83.12,72,94,4.05,ID,1635205461
59,sekoma,-24.4,23.8833,65.61,67,1,16.55,BW,1635205461
60,catamarca,-28.4696,-65.7852,80.04,21,0,9.98,AR,1635205462
61,waterford,42.7023,-83.4027,48.67,93,90,19.57,US,1635205462
62,port elizabeth,-33.918,25.5701,62.89,88,0,12.66,ZA,1635205252
63,east london,-33.0153,27.9116,63.93,84,93,10.58,ZA,1635205255
64,talnakh,69.4865,88.3972,15.35,96,100,6.62,RU,1635205288
65,camacupa,-12.0167,17.4833,63.84,82,87,3.69,AO,1635205463
66,san clemente,33.427,-117.612,63.19,93,100,4.0,US,1635205463
67,riyadh,24.6877,46.7219,73.54,43,0,7.02,SA,1635205276
68,margate,51.3813,1.3862,51.51,89,67,1.99,GB,1635205464
69,vaini,-21.2,-175.2,80.76,74,20,11.5,TO,1635205307
70,oranjemund,-28.55,16.4333,57.76,91,64,3.02,NA,1635205465
71,las delicias,19.8333,-90.5,82.89,82,29,7.4,MX,1635205465
72,castro,-24.7911,-50.0119,58.3,92,51,2.89,BR,1635205219
73,nikolskoye,59.7035,30.7861,45.39,90,100,9.26,RU,1635205466
74,colchester,51.8892,0.9042,50.99,87,59,8.5,GB,1635205314
75,ocho rios,18.4025,-77.1048,82.15,81,46,8.14,JM,1635205467
76,saint-francois,46.4154,3.9054,50.68,96,90,3.44,FR,1635205468
77,hermanus,-34.4187,19.2345,60.91,84,58,15.35,ZA,1635205469
78,te anau,-45.4167,167.7167,64.54,68,57,2.33,NZ,1635205469
79,cootamundra,-34.65,148.0333,62.94,49,0,2.86,AU,1635205470
80,port lincoln,-34.7333,135.8667,70.56,40,100,17.34,AU,1635205448
81,ponta do sol,32.6667,-17.1,70.43,69,44,5.35,PT,1635205306
82,khatanga,71.9667,102.5,4.64,96,100,7.09,RU,1635205197
83,muroto,33.2833,134.15,64.44,67,0,1.72,JP,1635205471
84,tolaga bay,-38.3667,178.3,71.2,61,28,14.67,NZ,1635205471
85,ngorongoro,-3.2397,35.4875,52.45,82,93,5.21,TZ,1635205400
86,lucban,14.1133,121.5569,79.66,79,75,7.65,PH,1635205472
87,ucluelet,48.9329,-125.5528,53.1,90,100,3.0,CA,1635205259
88,teknaf,20.8624,92.3058,75.58,87,98,3.44,BD,1635205474
89,upata,8.0086,-62.3989,71.4,95,98,8.08,VE,1635205474
90,kupang,-10.1667,123.5833,84.78,70,20,5.75,ID,1635205474
91,kampong thum,12.7111,104.8887,73.83,91,79,3.85,KH,1635205475
92,buala,-8.145,159.5921,85.89,65,55,8.79,SB,1635205267
93,kologriv,58.8275,44.3178,34.18,97,100,11.41,RU,1635205475
94,klaksvik,62.2266,-6.589,43.72,76,99,8.1,FO,1635205348
95,san rafael,-34.6177,-68.3301,79.27,11,0,10.67,AR,1635205366
96,torbay,47.6666,-52.7314,40.26,81,90,11.5,CA,1635205341
97,samarai,-10.6167,150.6667,83.35,73,51,10.42,PG,1635205377
98,hasaki,35.7333,140.8333,59.4,92,100,34.99,JP,1635205380
99,richards bay,-28.783,32.0377,63.28,96,100,5.77,ZA,1635205477
100,rio grande,-32.035,-52.0986,73.51,79,0,9.64,BR,1635205414
101,iqaluit,63.7506,-68.5145,31.73,86,90,4.0,CA,1635205478
102,half moon bay,37.4636,-122.4286,65.08,72,1,1.99,US,1635205218
103,dimapur,25.9,93.7333,66.04,90,4,0.69,IN,1635205479
104,kaitangata,-46.2817,169.8464,56.59,79,100,7.02,NZ,1635205479
105,aripuana,-9.1667,-60.6333,72.77,97,85,1.68,BR,1635205479
106,balykshi,47.0667,51.8667,32.0,80,0,8.95,KZ,1635205480
107,oussouye,12.485,-16.5469,82.58,82,99,1.74,SN,1635205480
108,bethel,41.3712,-73.414,66.99,88,90,4.61,US,1635205471
109,houston,29.7633,-95.3633,88.34,68,1,4.0,US,1635205391
110,butaritari,3.0707,172.7902,81.73,74,8,6.08,KI,1635205214
111,sidi ali,36.0998,0.4206,62.71,63,100,8.95,DZ,1635205482
112,bredasdorp,-34.5322,20.0403,58.32,88,45,8.05,ZA,1635205271
113,new norfolk,-42.7826,147.0587,56.66,41,19,1.88,AU,1635205245
114,haines junction,60.7522,-137.5108,30.15,69,100,1.14,CA,1635205483
115,odienne,9.51,-7.5692,72.5,94,55,4.36,CI,1635205483
116,ponta delgada,37.7333,-25.6667,68.72,77,40,6.91,PT,1635205350
117,gushikawa,26.3544,127.8686,72.63,76,1,4.61,JP,1635205300
118,pevek,69.7008,170.3133,-0.18,94,100,4.25,RU,1635205322
119,takoradi,4.8845,-1.7554,76.91,91,84,9.4,GH,1635205394
120,ndjole,-0.1783,10.7649,73.06,99,100,3.29,GA,1635205484
121,avera,33.194,-82.5271,74.75,82,49,7.31,US,1635205484
122,sri aman,1.2376,111.4621,75.25,100,92,1.14,MY,1635205485
123,powell river,49.8496,-124.5361,53.33,87,90,20.71,CA,1635205486
124,cayenne,4.9333,-52.3333,78.1,90,75,3.0,GF,1635205240
125,norman wells,65.282,-126.8329,23.04,93,90,3.44,CA,1635205486
126,cabo san lucas,22.8909,-109.9124,87.62,57,1,12.66,MX,1635205215
127,chokurdakh,70.6333,147.9167,-22.65,100,82,1.77,RU,1635205310
128,miyako,39.6367,141.9525,56.48,90,100,7.45,JP,1635205487
129,lishui,28.4604,119.9103,63.64,82,54,1.66,CN,1635205488
130,chardara,41.2547,67.9692,55.26,33,62,4.32,KZ,1635205489
131,puerto ayora,-0.7393,-90.3518,68.56,93,58,5.01,EC,1635205247
132,karratha,-20.7377,116.8463,79.25,35,2,15.93,AU,1635205489
133,cidreira,-30.1811,-50.2056,65.03,80,0,9.24,BR,1635205324
134,asau,46.4333,26.4,33.28,68,0,2.62,RO,1635205452
135,lorengau,-2.0226,147.2712,85.05,66,45,5.77,PG,1635205490
136,yeniseysk,58.4497,92.1703,34.3,73,99,8.97,RU,1635205491
137,jacareacanga,-6.2222,-57.7528,78.89,74,69,2.55,BR,1635205491
138,saint-pierre,-21.3393,55.4781,71.24,78,0,4.61,RE,1635205492
139,provideniya,64.3833,-173.3,21.31,63,75,8.95,RU,1635205333
140,longyearbyen,78.2186,15.6401,19.24,58,0,18.41,SJ,1635205328
141,west bay,19.3667,-81.4167,86.07,79,20,3.0,KY,1635205493
142,thompson,55.7435,-97.8558,37.56,75,40,3.44,CA,1635205303
143,ribeira grande,38.5167,-28.7,68.74,76,44,20.42,PT,1635205494
144,huarmey,-10.0681,-78.1522,64.29,82,11,8.97,PE,1635205495
145,avarua,-21.2078,-159.775,75.25,64,75,12.66,CK,1635205312
146,marsh harbour,26.5412,-77.0636,80.19,78,100,7.65,BS,1635205495
147,namatanai,-3.6667,152.4333,85.14,65,90,2.82,PG,1635205262
148,the pas,53.8251,-101.2541,44.62,65,1,20.71,CA,1635205496
149,tatarsk,55.219,75.9828,45.28,81,100,13.2,RU,1635205496
150,roma,43.2128,-75.4557,58.66,90,90,9.22,US,1635205497
151,vargashi,55.3556,65.8467,36.28,84,99,15.86,RU,1635205497
152,ornskoldsvik,63.2909,18.7153,30.02,100,90,3.44,SE,1635205498
153,beloha,-25.1667,45.05,71.19,93,20,7.47,MG,1635205346
154,panalingaan,8.7842,117.4231,82.49,74,86,4.99,PH,1635205498
155,khuzhir,53.1939,107.3397,41.16,73,99,12.37,RU,1635205499
156,hato mayor,18.7629,-69.256,80.11,88,54,4.85,DO,1635205499
157,plouzane,48.3833,-4.6167,57.25,94,75,8.05,FR,1635205500
158,grindavik,63.8424,-22.4338,37.9,93,75,4.61,IS,1635205500
159,vila velha,-20.3297,-40.2925,73.35,83,75,11.5,BR,1635205395
160,saskylakh,71.9167,114.0833,-0.8,97,100,2.66,RU,1635205281
161,izhma,65.0083,53.9113,17.82,97,55,3.67,RU,1635205501
162,hualmay,-11.0964,-77.6139,62.98,84,38,10.78,PE,1635205502
163,upernavik,72.7868,-56.1549,15.04,60,13,6.15,GL,1635205322
164,tiarei,-17.5333,-149.3333,80.62,74,88,3.85,PF,1635205503
165,pisco,-13.7,-76.2167,62.65,77,0,18.41,PE,1635205284
166,graaff-reinet,-32.2522,24.5308,52.92,80,9,2.51,ZA,1635205504
167,kalaleh,37.3807,55.4916,55.24,74,0,3.38,IR,1635205505
168,codrington,-38.2667,141.9667,57.42,53,46,9.22,AU,1635205505
169,san jose,37.3394,-121.895,65.05,55,75,1.99,US,1635205506
170,manicore,-5.8092,-61.3003,77.7,87,100,2.91,BR,1635205506
171,vegreville,53.5001,-112.0518,53.91,62,95,10.36,CA,1635205276
172,tasiilaq,65.6145,-37.6368,33.96,78,100,7.38,GL,1635205260
173,newala,-10.9431,39.2787,69.28,85,86,7.2,TZ,1635205507
174,port-gentil,-0.7193,8.7815,75.16,100,90,2.3,GA,1635205508
175,husavik,66.0449,-17.3389,28.31,79,71,6.82,IS,1635205508
176,coria,39.9879,-6.5377,54.45,58,4,3.44,ES,1635205509
177,touros,-5.1989,-35.4608,81.5,65,9,17.29,BR,1635205509
178,victoria,22.2855,114.1577,75.33,75,99,1.01,HK,1635205224
179,curaca,-8.9903,-39.9094,87.17,40,22,20.15,BR,1635205510
180,umm lajj,25.0213,37.2685,78.98,52,0,5.79,SA,1635205420
181,coronado,32.6859,-117.1831,65.48,90,90,17.27,US,1635205373
182,mar del plata,-38.0023,-57.5575,59.02,63,0,3.0,AR,1635205334
183,padang,-0.9492,100.3543,75.25,86,90,2.71,ID,1635205407
184,flinders,-34.5833,150.8552,68.81,58,5,1.99,AU,1635205259
185,baruun-urt,46.6806,113.2792,31.48,73,21,5.86,MN,1635205512
186,harnosand,62.6323,17.9379,45.0,91,93,9.82,SE,1635205512
187,mayor pablo lagerenza,-19.9309,-60.7718,76.73,25,100,4.52,PY,1635205513
188,namtsy,62.7161,129.6658,32.11,98,100,1.7,RU,1635205514
189,viedma,-40.8135,-62.9967,59.29,44,78,14.58,AR,1635205514
190,lazaro cardenas,17.9583,-102.2,76.64,87,100,6.58,MX,1635205515
191,brae,60.3964,-1.353,49.91,74,80,17.81,GB,1635205463
192,boguchany,58.3814,97.4531,40.1,86,81,13.8,RU,1635205515
193,naze,28.3667,129.4833,70.72,60,0,11.27,JP,1635205516
194,grand gaube,-20.0064,57.6608,72.37,73,7,5.01,MU,1635205516
195,kavieng,-2.5744,150.7967,83.88,70,96,4.41,PG,1635205258
196,sao filipe,14.8961,-24.4956,79.0,76,43,8.9,CV,1635205517
197,kodiak,57.79,-152.4072,44.11,70,90,11.5,US,1635205518
198,esperance,-33.8667,121.9,55.24,63,64,4.0,AU,1635205518
199,malayal,7.208,121.942,76.8,72,96,3.49,PH,1635205518
200,gwadar,25.1216,62.3254,76.8,73,0,1.81,PK,1635205519
201,le vauclin,14.5452,-60.8388,82.45,65,40,16.11,MQ,1635205520
202,bambous virieux,-20.3428,57.7575,72.21,83,40,12.66,MU,1635205343
203,innisfail,-17.5333,146.0333,88.88,58,82,6.55,AU,1635205520
204,luderitz,-26.6481,15.1594,56.7,90,3,6.04,NA,1635205392
205,manzhouli,49.6,117.4333,31.41,79,5,18.48,CN,1635205522
206,kavaratti,10.5669,72.642,82.2,73,63,14.14,IN,1635205456
207,hirara,24.8,125.2833,76.86,69,20,12.66,JP,1635205522
208,kathu,7.9178,98.3332,84.69,96,96,6.35,TH,1635205523
209,obo,5.3998,26.4869,69.93,96,100,3.58,CF,1635205523
210,alyangula,-13.8483,136.4192,85.87,74,57,0.0,AU,1635205524
211,idanre,7.1127,5.1159,71.96,99,100,2.26,NG,1635205524
212,mount gambier,-37.8333,140.7667,55.31,67,50,10.36,AU,1635205525
213,trairi,-3.2778,-39.2689,79.99,75,5,12.68,BR,1635205451
214,aloleng,16.1307,119.7824,80.82,72,94,10.47,PH,1635205526
215,bonavista,48.6499,-53.1147,41.11,67,94,17.78,CA,1635205526
216,evanston,42.0411,-87.6901,52.23,71,75,5.99,US,1635205527
217,inuvik,68.3499,-133.7218,25.81,100,90,1.14,CA,1635205241
218,aswan,24.0934,32.907,74.5,35,0,11.5,EG,1635205418
219,urusha,54.05,122.9,32.94,77,40,2.86,RU,1635205528
220,arraial do cabo,-22.9661,-42.0278,69.78,88,97,11.86,BR,1635205528
221,djambala,-2.5447,14.7533,67.77,96,100,4.03,CG,1635205529
222,puerto ayacucho,5.6639,-67.6236,76.8,92,97,5.3,VE,1635205530
223,ouro fino,-22.2831,-46.3692,65.26,92,70,3.06,BR,1635205530
224,mhango,-3.2833,32.85,73.51,60,100,2.84,TZ,1635205531
225,morehead,37.2711,-87.1764,54.14,82,90,4.0,US,1635205394
226,athabasca,54.7169,-113.2854,47.23,74,94,7.36,CA,1635205470
227,kungurtug,50.5994,97.5228,26.69,73,31,1.72,RU,1635205531
228,pascagoula,30.3658,-88.5561,81.05,83,1,0.0,US,1635205532
229,hamilton,39.1834,-84.5333,54.25,91,90,1.01,US,1635205391
230,khorixas,-20.3667,14.9667,59.9,39,2,1.97,NA,1635205533
231,bengkulu,-3.8004,102.2655,75.34,88,100,2.57,ID,1635205250
232,pemagatsel,27.0319,91.4266,49.59,87,2,4.59,BT,1635205534
233,nemuro,43.3236,145.575,56.19,80,100,8.88,JP,1635205354
234,virginia beach,36.8529,-75.978,70.02,92,100,1.01,US,1635205534
235,rio gallegos,-51.6226,-69.2181,46.45,39,75,20.71,AR,1635205371
236,saint anthony,45.0205,-93.218,49.93,55,1,3.44,US,1635205535
237,ust-ishim,57.6935,71.1665,36.16,98,100,4.25,RU,1635205536
238,peru,40.7537,-86.0689,48.92,91,90,16.11,US,1635205536
239,iracoubo,5.4802,-53.2011,77.05,92,100,9.31,GF,1635205537
240,kutum,14.2,24.6667,71.47,24,61,8.3,SD,1635205537
241,charleston,32.7766,-79.9309,73.22,92,1,1.99,US,1635205537
242,high level,58.5169,-117.136,39.31,100,90,8.05,CA,1635205538
243,kloulklubed,7.0419,134.2556,84.7,63,27,9.17,PW,1635205538
244,flin flon,54.7682,-101.865,42.64,65,75,17.27,CA,1635205539
245,tuatapere,-46.1333,167.6833,59.92,85,88,3.11,NZ,1635205338
246,fort morgan,40.2503,-103.8,74.8,24,1,19.57,US,1635205539
247,saldanha,-33.0117,17.9442,62.65,68,70,11.14,ZA,1635205540
248,san patricio,28.017,-97.5169,88.21,70,95,11.81,US,1635205386
249,kembe,4.6228,21.8865,71.08,93,89,0.81,CF,1635205541
250,mount pleasant,32.7941,-79.8626,73.99,92,1,1.99,US,1635205541
251,manokwari,-0.8667,134.0833,83.61,68,53,8.08,ID,1635205542
252,bubaque,11.2833,-15.8333,82.78,75,91,6.55,GW,1635205543
253,aksarka,66.5606,67.7975,14.05,89,78,5.99,RU,1635205544
254,krasnorechenskiy,44.6265,135.3532,48.99,51,0,1.01,RU,1635205544
255,hofn,64.2539,-15.2082,40.96,70,100,2.1,IS,1635205545
256,ippy,6.2679,21.2247,70.75,94,80,1.25,CF,1635205490
257,varhaug,58.6147,5.6457,50.9,83,71,12.21,NO,1635205465
258,nebolchi,59.1239,33.3454,34.74,95,99,9.08,RU,1635205545
259,gamba,-2.65,10.0,76.03,91,100,9.55,GA,1635205373
260,baghdad,33.3406,44.4009,60.71,48,0,2.3,IQ,1635205288
261,kieta,-6.2167,155.6333,86.43,65,26,4.72,PG,1635205546
262,tiguha,7.7044,123.2114,79.07,81,79,2.91,PH,1635205547
263,paamiut,61.994,-49.6678,36.46,58,22,8.72,GL,1635205547
264,bilma,18.6853,12.9164,80.64,16,0,4.34,NE,1635205386
265,kununurra,-15.7667,128.7333,87.78,62,64,3.44,AU,1635205436
266,ternate,0.8,127.4,83.3,73,31,3.09,ID,1635205415
267,quebo,11.3333,-14.9333,75.38,92,98,3.53,GW,1635205548
268,oyama,36.3,139.8,57.58,93,100,6.58,JP,1635205548
269,key west,24.5557,-81.7826,82.4,89,75,6.91,US,1635205549
270,komsomolskiy,40.4272,71.7189,45.32,49,21,6.91,UZ,1635205549
271,petropavlovsk-kamchatskiy,53.0452,158.6483,37.99,70,75,2.24,RU,1635205549
272,loksa,59.5764,25.7214,47.93,80,100,13.56,EE,1635205550
273,antofagasta,-23.65,-70.4,60.08,71,0,1.1,CL,1635205507
274,san andres,12.5847,-81.7006,84.22,79,20,8.05,CO,1635205551
275,los llanos de aridane,28.6585,-17.9182,65.95,82,20,3.0,ES,1635205551
276,nouadhibou,20.931,-17.0347,73.38,60,100,18.41,MR,1635205552
277,maues,-3.3836,-57.7186,80.28,69,63,2.62,BR,1635205552
278,geraldton,-28.7667,114.6,57.61,88,75,9.22,AU,1635205554
279,jalu,29.0331,21.5482,74.35,35,39,15.5,LY,1635205438
280,kruisfontein,-34.0033,24.7314,55.18,95,6,5.03,ZA,1635205555
281,hobyo,5.3505,48.5268,78.96,76,37,9.91,SO,1635205555
282,faya,18.3851,42.4509,59.11,75,0,2.39,SA,1635205556
283,suda,59.1525,37.5582,38.21,89,100,11.56,RU,1635205557
284,kropotkin,45.4375,40.5756,38.66,74,24,6.6,RU,1635205557
285,svetlyy,54.675,20.1347,39.25,69,100,11.97,RU,1635205558
286,dubai,25.2582,55.3047,82.33,78,20,4.61,AE,1635205335
287,whitehorse,60.7161,-135.0538,30.97,80,90,8.01,CA,1635205505
288,faanui,-16.4833,-151.75,74.34,91,98,7.74,PF,1635205558
289,ambilobe,-13.2,49.05,73.36,67,24,5.82,MG,1635205559
290,hambantota,6.1241,81.1185,78.57,83,100,9.69,LK,1635205560
291,souillac,-20.5167,57.5167,72.36,83,40,12.66,MU,1635205273
292,bekhtery,46.251,32.2927,40.24,59,0,8.21,UA,1635205560
293,weligama,5.9667,80.4167,77.65,86,98,9.28,LK,1635205350
294,vallenar,-28.5708,-70.7581,62.38,59,0,2.82,CL,1635205561
295,safaga,26.7292,33.9365,71.55,53,0,13.49,EG,1635205561
296,bulungu,-4.55,18.6,68.56,98,97,2.08,CD,1635205562
297,kangaatsiaq,68.3065,-53.4641,18.5,83,21,10.76,GL,1635205563
298,alice town,25.7167,-79.3,81.63,82,100,15.12,BS,1635205563
299,mildura,-34.2,142.15,70.07,36,0,10.36,AU,1635205563
300,mayahi,13.9553,7.6712,85.59,17,4,8.61,NE,1635205564
301,alice springs,-23.7,133.8833,85.55,39,0,11.5,AU,1635205565
302,alofi,-19.0595,-169.9187,82.29,65,75,14.97,NU,1635205565
303,palana,59.1167,159.9667,30.81,84,100,21.97,RU,1635205566
304,tabora,-5.0167,32.8,72.57,42,100,4.52,TZ,1635205567
305,madoc,44.5084,-77.4745,45.84,93,100,14.54,CA,1635205567
306,aurillac,44.9167,2.45,46.0,100,100,0.0,FR,1635205568
307,ialibu,-6.2821,143.9935,65.03,64,100,3.89,PG,1635205568
308,chiang rai,19.9167,99.9167,73.13,93,42,1.01,TH,1635205569
309,lata,40.1629,-8.3327,58.82,92,0,3.58,PT,1635205569
310,sao gabriel da cachoeira,-0.1303,-67.0892,72.95,97,96,1.28,BR,1635205570
311,severo-kurilsk,50.6789,156.125,45.95,72,14,12.53,RU,1635205571
312,altamirano,16.8833,-92.15,61.23,98,64,0.67,MX,1635205571
313,manoel urbano,-8.8389,-69.2597,67.3,99,100,1.01,BR,1635205572
314,kahului,20.8947,-156.47,84.97,69,20,25.32,US,1635205317
315,butembo,0.15,29.2833,55.92,95,81,3.42,CD,1635205572
316,sungairaya,0.7,108.9,79.97,84,80,5.26,ID,1635205573
317,almeirim,-1.5233,-52.5817,81.14,67,63,3.42,BR,1635205574
318,itarema,-2.9248,-39.9167,80.08,75,2,17.27,BR,1635205574
319,narsaq,60.9167,-46.05,39.42,46,20,8.32,GL,1635205575
320,roebourne,-20.7833,117.1333,80.85,34,2,14.94,AU,1635205575
321,nioro,13.35,-15.75,79.32,78,100,4.25,GM,1635205387
322,charters towers,-20.1,146.2667,83.84,42,97,11.21,AU,1635205576
323,tiksi,71.6872,128.8694,2.05,96,99,4.81,RU,1635205576
324,dongsheng,39.8161,109.9776,38.21,44,73,9.89,CN,1635205577
325,idrinskoye,54.3708,92.1358,39.99,84,85,3.47,RU,1635205577
326,katsuura,35.1333,140.3,60.19,88,100,32.73,JP,1635205578
327,salalah,17.0151,54.0924,73.49,78,0,3.44,OM,1635205578
328,bonthe,7.5264,-12.505,78.15,87,96,5.95,SL,1635205579
329,douentza,14.9951,-2.9517,88.99,35,95,4.65,ML,1635205579
330,callaguip,18.0714,120.4867,77.02,94,75,3.44,PH,1635205580
331,coahuayana,18.7333,-103.6833,78.89,86,100,1.92,MX,1635205580
332,la ciotat,43.1748,5.6045,58.8,76,25,7.05,FR,1635205581
333,baoding,38.8511,115.4903,55.33,68,98,5.68,CN,1635205455
334,pincher creek,49.4833,-113.952,50.36,40,75,19.57,CA,1635205572
335,quatre cocos,-20.2078,57.7625,72.09,74,20,16.04,MU,1635205582
336,la asuncion,11.0333,-63.8628,79.59,83,99,16.42,VE,1635205582
337,beringovskiy,63.05,179.3167,14.65,71,100,4.27,RU,1635205583
338,wilmington,34.2257,-77.9447,71.85,84,40,0.0,US,1635205583
339,mercedes,-34.6515,-59.4307,74.17,53,15,6.82,AR,1635205415
340,dali,25.7,100.1833,52.75,93,17,3.18,CN,1635205350
341,oktyabrskiy,54.4815,53.471,28.56,79,30,4.59,RU,1635205585
342,fare,-16.7,-151.0167,74.16,91,100,6.17,PF,1635205585
343,aykhal,66.0,111.5,8.31,96,79,9.51,RU,1635205338
344,ancud,-41.8697,-73.8203,52.43,95,100,14.14,CL,1635205586
345,lasa,46.6166,10.7002,40.08,49,94,1.83,IT,1635205587
346,fallon,39.4735,-118.7774,51.42,65,75,9.22,US,1635205399
347,kjollefjord,70.9457,27.3465,32.11,88,90,24.32,NO,1635205587
348,fukue,32.6881,128.8419,61.16,94,20,2.3,JP,1635205588
349,jaguaruna,-28.615,-49.0256,64.26,86,0,4.94,BR,1635205588
350,maragogi,-9.0122,-35.2225,78.28,73,44,13.24,BR,1635205589
351,biak,-0.9131,122.8766,81.86,72,85,1.7,ID,1635205589
352,deputatskiy,69.3,139.9,-1.05,98,99,1.99,RU,1635205590
353,barda,40.3744,47.1267,53.73,42,99,13.82,AZ,1635205590
354,dorgos,46.05,21.8333,40.26,63,0,3.18,RO,1635205591
355,abha,18.2164,42.5053,58.82,77,0,0.0,SA,1635205591
356,yatou,37.15,122.3833,58.1,66,53,5.03,CN,1635205591
357,khasan,42.4308,130.6434,51.04,62,7,3.0,RU,1635205592
358,axim,4.8699,-2.2405,78.03,88,85,10.16,GH,1635205592
359,mezen,65.8522,44.24,18.59,97,62,4.23,RU,1635205593
360,coquimbo,-29.9533,-71.3436,58.73,88,90,5.75,CL,1635205593
361,zhigansk,66.7697,123.3711,23.54,96,100,12.82,RU,1635205594
362,wanning,18.8003,110.3967,72.57,85,100,9.53,CN,1635205595
363,boca do acre,-8.7522,-67.3978,71.04,99,100,2.33,BR,1635205595
364,berestechko,50.3605,25.1107,39.0,60,10,8.05,UA,1635205596
365,clyde river,70.4692,-68.5914,25.03,74,90,2.3,CA,1635205329
366,airai,-8.9266,125.4092,71.78,41,70,2.71,TL,1635205597
367,roald,62.5833,6.1333,48.34,81,100,19.57,NO,1635205597
368,vardo,70.3705,31.1107,34.59,78,100,24.4,NO,1635205352
369,chernyshevskiy,63.0128,112.4714,27.16,95,100,5.53,RU,1635205598
370,holly hill,29.2436,-81.0376,80.69,72,40,5.01,US,1635205598
371,mayo,38.8876,-76.5119,67.98,93,75,1.99,US,1635205599
372,pakhtakoron,40.1571,68.7466,54.01,28,81,2.75,TJ,1635205599
373,laguna,38.421,-121.4238,66.76,59,20,1.99,US,1635205600
374,bend,44.0582,-121.3153,49.87,61,20,3.0,US,1635205461
375,tabas,33.5959,56.9244,58.73,26,0,1.28,IR,1635205601
376,wladyslawowo,54.7909,18.4009,43.93,68,100,10.51,PL,1635205601
377,pallasovka,50.05,46.8833,33.73,69,50,7.36,RU,1635205602
378,achacachi,-16.05,-68.6833,41.81,78,2,13.56,BO,1635205602
379,sibu,2.3,111.8167,77.31,100,40,5.01,MY,1635205603
380,guangyuan,32.442,105.823,54.5,99,100,6.2,CN,1635205603
381,san quintin,30.4833,-115.95,66.29,72,6,13.96,MX,1635205603
382,kaeo,-35.1,173.7833,74.32,76,37,7.65,NZ,1635205369
383,ascension,30.2169,-90.9001,82.99,78,1,0.0,US,1635205604
384,northam,51.0333,-4.2167,55.09,91,56,8.97,GB,1635205605
385,bima,-8.4667,118.7167,84.34,68,100,4.56,ID,1635205606
386,waiuku,-37.25,174.75,71.26,83,94,6.55,NZ,1635205606
387,chenzhou,25.8,113.0333,62.02,81,56,0.22,CN,1635205607
388,inawashiro,37.5667,140.1167,51.69,97,100,4.38,JP,1635205607
389,rebrikha,53.0733,82.3408,41.56,55,83,8.14,RU,1635205608
390,olafsvik,64.8945,-23.7142,35.71,70,50,5.88,IS,1635205346
391,tamworth,52.634,-1.6959,49.62,87,45,5.01,GB,1635205609
392,vao,-22.6667,167.4833,72.27,70,35,13.87,NC,1635205609
393,kenai,60.5544,-151.2583,42.85,75,75,6.91,US,1635205610
394,bilibino,68.0546,166.4372,-10.07,92,98,1.72,RU,1635205611
395,tautira,-17.7333,-149.15,80.62,77,90,3.56,PF,1635205436
396,banda aceh,5.5577,95.3222,78.82,81,100,7.25,ID,1635205611
397,pacific grove,36.6177,-121.9166,64.76,79,75,3.0,US,1635205612
398,tingo maria,-9.2895,-76.0088,70.72,98,100,0.98,PE,1635205612
399,lagoa,39.05,-27.9833,67.26,73,1,12.88,PT,1635205385
400,magadan,59.5667,150.8,27.01,68,99,2.24,RU,1635205613
401,uray,60.1247,64.7758,27.43,79,92,10.71,RU,1635205613
402,andenes,69.3143,16.1194,37.08,93,90,6.91,NO,1635205614
403,porto novo,6.4965,2.6036,80.42,89,80,5.44,BJ,1635205614
404,chapais,49.7834,-74.8492,37.18,88,95,4.94,CA,1635205615
405,belyy yar,53.6039,91.3903,44.49,70,0,4.47,RU,1635205615
406,barsovo,61.1667,73.1667,33.93,98,100,8.57,RU,1635205616
407,poya,-21.35,165.15,79.9,55,3,4.41,NC,1635205617
408,mount isa,-20.7333,139.5,91.17,22,5,8.05,AU,1635205617
409,bambanglipuro,-7.95,110.2833,80.08,71,96,6.38,ID,1635205617
410,oliveira dos brejinhos,-12.3169,-42.8961,76.57,72,77,4.41,BR,1635205618
411,bunia,1.5667,30.25,62.01,93,74,1.86,CD,1635205619
412,goshogawara,40.8044,140.4414,54.01,92,100,4.27,JP,1635205620
413,mareeba,-17.0,145.4333,84.33,34,46,7.43,AU,1635205409
414,punakha,27.5837,89.8598,55.71,88,29,1.9,BT,1635205620
415,mahajanga,-15.7167,46.3167,77.02,69,40,6.91,MG,1635205323
416,orlik,52.5178,99.825,26.1,75,22,3.76,RU,1635205621
417,svetlaya,46.5389,138.3297,50.99,49,0,1.83,RU,1635205622
418,korba,22.35,82.6833,64.83,64,2,4.9,IN,1635205622
419,linao,7.1678,124.9675,77.77,89,100,1.36,PH,1635205623
420,klyuchi,52.2667,79.1667,45.1,46,99,11.45,RU,1635205624
421,betare oya,5.6,14.0833,67.75,96,96,3.0,CM,1635205624
422,goure,13.9835,10.2704,87.03,17,2,7.92,NE,1635205625
423,erzin,36.9559,36.2,68.52,47,43,2.68,TR,1635205625
424,coffs harbour,-30.3,153.1333,73.67,70,40,14.97,AU,1635205625
425,fort collins,40.5853,-105.0844,69.69,33,1,1.99,US,1635205408
426,dingle,10.9995,122.6711,80.74,85,90,7.18,PH,1635205626
427,neka,36.6508,53.299,57.18,81,21,2.21,IR,1635205627
428,nyurba,63.2842,118.3319,31.21,91,98,7.18,RU,1635205627
429,atambua,-9.1061,124.8925,82.45,55,88,2.91,ID,1635205628
430,korla,41.7597,86.1469,45.81,44,0,3.78,CN,1635205628
431,hovd,48.0056,91.6419,32.22,52,8,0.31,MN,1635205628
432,uruzgan,32.8333,66.0,49.33,28,67,7.18,AF,1635205629
433,taoudenni,22.6783,-3.9836,85.91,16,68,9.73,ML,1635205630
434,liverpool,53.4106,-2.9779,49.82,87,0,1.01,GB,1635205630
435,el oro,26.8667,-105.85,70.27,28,0,8.19,MX,1635205631
436,marshall,34.3834,-86.3333,70.11,74,37,13.94,US,1635205632
437,lokosovo,61.1333,74.8167,33.1,97,100,8.95,RU,1635205632
438,areka,7.0667,37.7,61.79,74,59,2.89,ET,1635205632
439,gambela,8.25,34.5833,74.71,71,83,5.44,ET,1635205633
440,shunyi,40.125,116.6453,54.84,87,76,4.47,CN,1635205633
441,nelson bay,-32.7167,152.15,69.76,65,77,1.99,AU,1635205454
442,pelym,61.0108,61.9978,25.54,75,15,8.19,RU,1635205634
443,kalmunai,7.4167,81.8167,77.83,85,95,6.89,LK,1635205635
444,namibe,-15.1961,12.1522,62.82,81,19,6.73,AO,1635205635
445,shyryayeve,47.3805,30.1964,37.81,63,4,5.79,UA,1635205636
446,luganville,-15.5333,167.1667,82.74,72,30,9.13,VU,1635205636
447,sekudai,1.5333,103.6667,83.93,85,20,0.0,MY,1635205637
448,solnechnyy,50.7214,136.6319,41.95,69,45,4.81,RU,1635205637
449,constitucion,-35.3333,-72.4167,58.87,75,77,14.56,CL,1635205638
450,launceston,-41.45,147.1667,56.8,65,90,7.0,AU,1635205448
451,tiruchchendur,8.4833,78.1167,80.4,75,73,3.62,IN,1635205639
452,yemelyanovo,56.1681,92.6767,43.61,61,0,8.95,RU,1635205639
453,wawa,9.9022,4.4192,78.53,53,66,3.49,NG,1635205640
454,galatini,40.3167,21.55,37.71,89,7,0.98,GR,1635205641
455,kapoeta,4.7717,33.5903,82.08,46,83,13.42,SS,1635205641
456,sawtell,-30.3833,153.1,73.72,70,40,14.97,AU,1635205642
457,aklavik,68.2191,-135.0107,25.63,96,96,1.68,CA,1635205642
458,cobh,51.8572,-8.2992,52.11,94,75,6.91,IE,1635205642
459,kuching,1.55,110.3333,77.22,100,40,3.44,MY,1635205643
460,manadhoo,5.7667,73.3833,81.7,77,92,9.62,MV,1635205644
461,bitung,1.4451,125.1824,83.25,69,31,4.14,ID,1635205645
462,cockburn town,21.4612,-71.1419,82.81,78,29,16.89,TC,1635205645
463,lethem,3.3803,-59.7968,78.64,83,98,7.78,GY,1635205358
464,verkhnevilyuysk,63.4453,120.3167,30.6,88,99,6.17,RU,1635205646
465,opuwo,-18.0607,13.84,67.21,26,5,9.17,NA,1635205388
466,maarianhamina,60.0973,19.9348,46.26,87,75,4.61,AX,1635205646
467,nanortalik,60.1432,-45.2371,34.38,65,43,9.82,GL,1635205647
468,tateyama,34.9833,139.8667,62.87,86,100,35.48,JP,1635205648
469,general roca,-39.0333,-67.5833,72.0,38,100,31.41,AR,1635205648
470,tamboril,19.4854,-70.611,81.37,83,40,5.75,DO,1635205649
471,zhezkazgan,47.8043,67.7144,44.53,44,98,4.32,KZ,1635205649
472,antalaha,-14.9003,50.2788,71.58,84,27,5.57,MG,1635205650
473,kulhudhuffushi,6.6221,73.07,81.64,77,92,9.48,MV,1635205650
474,senador jose porfirio,-2.5908,-51.9542,78.84,82,65,1.92,BR,1635205651
475,barranca,-10.75,-77.7667,62.17,84,38,9.1,PE,1635205651
476,koumac,-20.5667,164.2833,79.32,57,25,5.01,NC,1635205652
477,thinadhoo,0.5333,72.9333,83.5,71,98,15.75,MV,1635205653
478,sangar,63.9242,127.4739,22.41,96,100,5.88,RU,1635205653
479,robertsport,6.7533,-11.3686,78.98,83,97,9.37,LR,1635205654
480,kilindoni,-7.9139,39.6668,78.66,82,68,9.46,TZ,1635205483
481,shimoda,34.6667,138.95,62.96,83,100,15.93,JP,1635205377
482,morden,49.1919,-98.1014,48.06,49,97,13.8,CA,1635205655
483,pandan,14.0453,124.1694,81.27,84,97,9.44,PH,1635205655
484,natal,-5.795,-35.2094,81.25,83,75,12.66,BR,1635205473
485,waipawa,-41.4122,175.5153,63.3,54,27,7.47,NZ,1635205656
486,boyolangu,-8.1181,111.8935,80.65,68,63,5.64,ID,1635205656
487,valdivia,-39.8142,-73.2459,55.49,97,100,2.42,CL,1635205657
488,nadapuram,11.7,75.6667,74.53,92,65,3.71,IN,1635205658
489,valley,45.1277,-116.1262,33.6,95,100,3.96,US,1635205659
490,coos bay,43.3665,-124.2179,58.98,96,90,12.66,US,1635205659
491,marienburg,54.0359,19.0266,45.05,78,100,7.72,PL,1635205660
492,chervona sloboda,49.3789,32.1464,37.06,62,5,7.25,UA,1635205660
493,vila,42.0304,-8.1588,49.93,89,1,4.12,PT,1635205660
494,port hardy,50.6996,-127.4199,51.8,87,90,17.27,CA,1635205380
495,juegang,32.3174,121.1855,65.91,67,58,1.7,CN,1635205661
496,ust-kuyga,70.0167,135.6,2.3,97,100,3.87,RU,1635205662
497,makakilo city,21.3469,-158.0858,84.52,54,75,9.22,US,1635205662
498,bereda,43.2686,-7.5406,48.58,100,21,1.39,ES,1635205662
499,djibo,14.1022,-1.6306,87.1,36,13,8.32,BF,1635205663
500,lages,-27.8161,-50.3261,54.39,94,0,2.17,BR,1635205664
501,lesnoye,58.2841,35.5158,33.66,92,99,8.97,RU,1635205664
502,bandarbeyla,9.4942,50.8122,75.92,83,52,4.14,SO,1635205665
503,pahalgam,34.0333,75.3333,31.32,49,0,9.95,IN,1635205665
504,berlevag,70.8578,29.0864,33.89,76,97,26.87,NO,1635205666
505,miguel calmon,-11.4289,-40.595,73.69,83,87,6.6,BR,1635205666
506,calama,-22.4667,-68.9333,66.69,10,0,21.85,CL,1635205667
507,lavrentiya,65.5833,-171.0,18.1,76,100,9.24,RU,1635205667
508,poli,-3.3333,36.8,59.25,89,36,2.51,TZ,1635205668
509,camopi,3.1655,-52.3158,73.78,99,100,3.15,GF,1635205668
510,crepaja,45.0094,20.6356,50.27,57,0,20.22,RS,1635205669
511,santa rosalia,27.3167,-112.2833,80.49,42,0,4.18,MX,1635205669
512,suntar,62.1444,117.6319,32.32,85,97,7.16,RU,1635205669
513,coruripe,-10.1256,-36.1756,77.79,80,11,14.03,BR,1635205670
514,owosso,42.9978,-84.1766,47.95,89,90,1.99,US,1635205670
515,conroe,30.3119,-95.456,88.21,79,1,3.44,US,1635205671
516,santa cruz,-17.8,-63.1667,75.25,60,97,2.3,BO,1635205433
517,ecroignard,-20.2261,57.7361,71.64,74,23,15.23,MU,1635205671
518,pueblo,38.2545,-104.6091,75.0,29,1,1.01,US,1635205471
519,carbondale,37.7273,-89.2168,55.36,77,90,9.22,US,1635205672
520,ahuimanu,21.4447,-157.8378,85.71,60,40,18.41,US,1635205456
521,dickinson,29.4608,-95.0513,87.19,77,40,1.99,US,1635205673
522,igra,57.5558,53.0547,25.74,85,21,6.35,RU,1635205673
523,bure,10.7,37.0667,54.46,76,30,4.63,ET,1635205673
524,bowen,-20.0167,148.2333,82.62,66,90,12.01,AU,1635205674
525,blackwater,-23.5833,148.8833,82.58,48,66,13.06,AU,1635205675
526,ankang,32.68,109.0172,57.63,93,100,1.54,CN,1635205675
527,altamira,-3.2033,-52.2064,79.75,76,50,3.38,BR,1635205676
528,turukhansk,65.8167,87.9833,13.82,97,99,7.52,RU,1635205676
529,donghai,22.9459,115.642,71.94,75,100,4.99,CN,1635205676
530,manzanillo,20.3433,-77.1167,79.68,80,76,3.11,CU,1635205677
531,breves,-1.6822,-50.4803,80.29,78,48,4.45,BR,1635205677
532,rio pardo,-29.9897,-52.3781,62.4,73,0,3.06,BR,1635205678
533,marovoay,-16.1,46.6333,77.14,61,6,6.33,MG,1635205678
534,ostersund,63.1792,14.6357,35.62,100,75,2.3,SE,1635205679
535,baculin,7.4525,126.5842,81.36,81,97,2.64,PH,1635205679
536,vostok,46.4856,135.8833,43.65,57,1,2.62,RU,1635205679
537,dakar,14.6937,-17.4441,81.48,83,99,4.61,SN,1635205542
538,vila franca do campo,37.7167,-25.4333,68.41,80,21,6.26,PT,1635205680
539,sao joao da barra,-21.6403,-41.0511,71.24,87,99,8.95,BR,1635205430
540,paita,-5.0892,-81.1144,66.76,82,93,13.11,PE,1635205630
